"sno","sna","tot","sbi","sarea","mday","lat","lng","ar","sareaen","snaen","aren","bemp","act"
"1008","興華公園","24","2","三重區","20240523190937","25.060125","121.483101","重陽路一段120巷/中華路2巷","Sanchong Dist.","Xinghua Park","Ln. 120, Sec. 1, Chongyang Rd./Ln. 2, Zhonghua Rd.","22","1"
"1009","三重國民運動中心","14","1","三重區","20240523190936","25.054391","121.488489","集美街/重新路四段184巷","Sanchong Dist.","San chong Civil Sports Center","Jimei St., Sanchong Dist./Ln. 184, Sec. 4, Chongxin Rd.","11","1"
"1010","捷運三重站(3號出口)","14","0","三重區","20240523190925","25.055883","121.484739","捷運路/捷運路37巷","Sanchong Dist.","MRT Sanchong Sta. (Exit 3)","Jieyun Rd./Ln. 37, Jieyun Rd.","13","1"
"1015","後港公園","10","0","新莊區","20240523190941","25.025358","121.428348","建安街/建安街57巷","Xinzhuang Dist.","Hougang Park","Ln. 57, Jian’an St./Jian’an St.","9","1"
"1016","福營行政中心","20","0","新莊區","20240523190943","25.0241250","121.423870","四維路17號-20號","Xinzhuang Dist.","Fuying Administration Center","No.17, Siwei Rd./No.20, Siwei Rd.","18","1"
"1017","西盛公園","10","0","新莊區","20240523190917","25.017113","121.428048","新莊區西盛街/西盛街201巷","Xinzhuang Dist.","Xisheng Park","Xisheng St./Ln. 201, Xisheng St.","10","1"
"1019","仁愛廣場","22","3","蘆洲區","20240523190745","25.090565","121.471621","民權路139號旁","Luzhou Dist.","Renai Square","No.139, Minquan Rd.","10","1"
"1022","三重商工","10","0","三重區","20240523190925","25.068681","121.480705","中正北路/中正北路276巷","Sanchong Dist.","San-Chung Commercial and Industrial Vocational High School","Ln. 276, Zhongzheng N. Rd.","7","1"
"1023","捷運新莊站(1號出口)","22","0","新莊區","20240523190943","25.036152 ","121.452069 ","中正路/中華路一段(鄰近新莊廟街)","Xinzhuang Dist.","MRT Xinzhuang Sta. (Exit 1)","Zhongzheng Rd./Sec. 1, Zhonghua Rd.","12","1"
"1032","重陽公園","14","2","蘆洲區","20240523190934","25.085688","121.483618","集賢路221巷重陽活動中心(鄰近蘆洲兒童親子分館)","Luzhou Dist.","Chong Yang Park","Ln. 221, Jixian Rd.","12","1"
"1034","中原公園","10","0","蘆洲區","20240523190926","25.083316 ","121.463894 ","長興路22號前通道","Luzhou Dist.","Zhung Yuan Park","No.22, Changxing Rd.","10","1"
"1035","丹鳳派出所","18","0","新莊區","20240523190924","25.027694 ","121.414662 ","雙鳳路77巷丹鳳派出所前","Xinzhuang Dist.","Danfeng Police Substation","Ln. 77, Shuangfeng Rd.(Danfeng Police Station)","18","1"
"1038","新莊棒球場","10","1","新莊區","20240523190932","25.041603 ","121.446053 ","和興街75號/復興路一段23號(鄰近新莊綜合運動場)","Xinzhuang Dist.","Xinzhuang Baseball Court","No.75, Hexing St./No.23, Sec. 1, Fuxing Rd.","9","1"
"1047","新莊文化藝術中心","26","0","新莊區","20240523190935","25.047150 ","121.444453 ","中平路133號前(鄰近新莊文化藝術中心)","Xinzhuang Dist.","Xinzhuang Culture and Arts Center","No.133, Zhongping Rd.","24","1"
"1048","中華中原路口","10","1","新莊區","20240523190925","25.054232","121.451752","中原路/中華路二段","Xinzhuang Dist.","Zhonghua & Zhongyuan Intersection","Zhongyuan Rd./Sec. 2, Zhonghua Rd","9","1"
"1050","福壽公園","20","1","新莊區","20240523190928","25.051829 ","121.457746 ","福壽街130號至140號(對面福壽公園)","Xinzhuang Dist.","Fushou Park","No.130 to No.140, Fushou St.","19","1"
"1065","開元市民活動中心","10","0","三重區","20240523190834","25.066074","121.503557","開元街58號/長元街65巷16弄對面","Sanchong Dist.","Kaiyuan Civic Activity Center","No.58, Kaiyuan St./Aly. 16, Ln. 65, Changyuan St. (opposite)","10","1"
"1067","二重國小","10","1","三重區","20240523190941","25.065976","121.477656","頂崁街164號至188號(對面二重國小)","Sanchong Dist.","Er Chong Elementary School","No.164 to No.188, Dingkan St. (opposite)","9","1"
"1068","二重國中","44","0","三重區","20240523190935","25.065957","121.480465","忠孝路三段75巷1號至忠孝路三段75巷11號(對面人行道)","Sanchong Dist.","Er Chung Junior High School","No.1, Ln. 75, Sec. 3, Zhongxiao Rd. to No.11, Ln. 75, Sec. 3, Zhongxiao Rd. (opposite)","43","1"
"1070","新北市立圖書館三重分館","10","0","三重區","20240523190925","25.066099","121.495529","自強路一段162號至自強路一段二弄4號(對面停車場)","Sanchong Dist.","New Taipei City Library Sanchong Branch","No.162, Sec. 1, Ziqiang Rd. to No.4, Aly. 2, Sec. 1, Ziqiang Rd. (opposite)","10","1"
"1071","三張公園","10","2","三重區","20240523190934","25.070507","121.490935","大智街127號至大智路137號(對面三張公園)","Sanchong Dist.","Sanzhang Park","No.127, Dazhi St. to No.137, Dazhi St. (opposite)","8","1"
"1072","捷運丹鳳站(1號出口)","24","0","新莊區","20240523190928","25.029032","121.422799","中正路/民安路","Xinzhuang Dist.","MRT Danfeng Sta. (Exit 1)","Zhongzheng Rd./Min’an Rd","23","1"
"1074","中港國小","20","2","新莊區","20240523190945","25.045673","121.44780","中和街70號對面","Xinzhuang Dist.","Zhonggang Elementary School","No.70, Zhonghe St. (opposite)","18","1"
"1078","黃城公園","18","1","新莊區","20240523190931","25.052382","121.448239","中信街74號旁","Xinzhuang Dist.","Huangcheng Park","No.74, Zhongxin St.","16","1"
"1080","捷運三和國中站(1號出口)","38","2","三重區","20240523190916","25.075881","121.487795","三和路四段95號至97號對面(捷運三和國中站1號出口)","Sanchong Dist.","MRT Sanhe Junior High School Sta.","No.95 to N0. 97, Sec. 4, Sanhe Rd. (opposite)","35","1"
"1082","四維公園","40","0","新莊區","20240523190935","25.021308","121.422185","四維路181號對面(四維活動中心出口前)","Xinzhuang Dist.","Siwei Park","No.181, Siwei Rd. (opposite)","37","1"
"1084","和平公園","20","0","三重區","20240523190930","25.070884","121.485712","忠孝路二段/忠孝路二段32巷","Sanchong Dist.","Helping Park","Zhongxiao Rd./Ln. 32, Sec. 2, Zhongxiao Rd.","20","1"
"1085","三重綜合體育館","16","2","三重區","20240523190937","25.061446","121.491926","新北大道一段1號前人行道","Sanchong Dist.","Sanchong Sports Center","No.1, Sec. 1, New Taipei Blvd.","14","1"
"1086","信義公園","16","0","三重區","20240523190932","25.064804","121.498749","信義西街18號對面人行道(鄰近三和夜市)","Sanchong Dist.","Xinyi Park","No.18, Xinyi W. St. (opposite)","16","1"
"1090","永康公園","20","3","蘆洲區","20240523190922","25.084920","121.458210","長安街297號(對面)","Luzhou Dist.","Yongkang Park","No.297, Chang’an St., Luzhou Dist.(opposite)","16","1"
"1091","頭前運動公園","28","1","新莊區","20240523190942","25.052180","121.462124","頭成街165號對面人行道","Xinzhuang Dist.","Touqian Sports Park","No.165, Toucheng St. (opposite)","26","1"
"1092","頭前國中","10","1","新莊區","20240523190932","25.054464","121.459318","中原路3至9號對面人行道","Xinzhuang Dist.","Touqian Junior High School","No.3 to No.9 , Zhongyuan Rd. (opposite)","8","1"
"1094","聯邦公園","10","0","三重區","20240523190929","25.064447","121.483710","三民街/中華路","Sanchong Dist.","Lian Bang Park","Sanmin St./Zhonghua Rd.","9","1"
"1095","捷運蘆洲站","46","1","蘆洲區","20240523190927","25.091637","121.464031","三民路/中正路口","Luzhou Dist.","MRT Luzhou Sta.","Sanmin Rd./Zhongzheng Rd.","43","1"
"1096","集成成功路口","16","0","三重區","20240523190941","25.051542","121.488208","集成路2號至8號前人行道","Sanchong Dist.","Ji Cheng Cheng Gong Intersection","No.2 to No.8, Jicheng Rd.","15","1"
"1112","碧華公園","12","1","三重區","20240523190923","25.083741","121.487491","溪尾街303號(對面公園)","Sanchong Dist.","Bihua Park","No.303, Xiwei St. (opposite)","11","1"
"1114","同安公園","10","2","三重區","20240523190941","25.057320","121.499067","正義南路/同安東街(正義南路側公園廣場)(鄰近新北市眷村文化園區（空軍三重一村）)","Sanchong Dist.","Tong An Park","Zhengyi S. Rd./Tong’an E. St.","8","1"
"1115","中華里(中華路二段)","10","0","新莊區","20240523190926","25.045951","121.453766","中華路2段31號對面","Xinzhuang Dist.","Zhonghua Village (Zhonghua Rd. Sec. 2 )","No.31, Sec. 2, Zhonghua Rd. (opposite)","10","1"
"1116","中華自治街口","20","0","新莊區","20240523190934","25.047855","121.453202","中華路2段/自治街口人行道(中港大排東側)","Xinzhuang Dist.","Zhonghua & Zizhi Intersection","Sec. 2, Zhonghua Rd/Zizhi St.","20","1"
"1118","捷運亞東醫院站(2號出口)","28","0","板橋區","20240523190915","24.997830","121.452315","南雅南路二段122-23號前人行道","Banqiao Dist.","MRT Far Eastern Hospital Sta.(Exit.2)","No.122-23, Sec. 2, Nanya S. Rd.","28","1"
"1119","新泰公園","24","2","新莊區","20240523190934","25.037200","121.444946","建中街116巷/建中街116巷3弄","Xinzhuang Dist.","Xintai Park","Ln. 116, Jianzhong St./Aly. 3, Ln. 116, Jianzhong St.","20","1"
"1121","進安公園","10","4","三重區","20240523190926","25.086031","121.493774","仁義街258號至290號","Sanchong Dist.","Jinan Park","No.258 to No.290, Renyi St.","6","1"
"1122","自強溪尾街口","22","1","三重區","20240523190929","25.078220","121.490157","自強路4段/溪尾街","Sanchong Dist.","Ziqiang & Xiwei Intersection","Sec. 4, Ziqiang Rd./Xiwei St.","21","1"
"1123","捷運三重國小站","16","6","三重區","20240523190943","25.070418","121.497126","仁愛街/三和路3段11巷","Sanchong Dist.","MRT Sanchong Elementary School Sta.","Ren’ai St./Ln. 11, Sec. 3, Sanhe Rd.","10","1"
"1127","新北市立圖書館總館","16","0","板橋區","20240523190932","25.001583","121.455524","貴興路119巷(鄰近新北市立圖書館總館)","Banqiao Dist.","New Taipei City Library","Ln. 119, Guixing Rd.","16","1"
"1128","永福國小","8","3","三重區","20240523190926","25.077714","121.480315","永福街/下竹圍街","Sanchong Dist.","Yong Fu Elementary School","Yongfu St./Xiazhuwei St.","5","1"
"1129","明志國小","64","0","泰山區","20240523190945","25.045729","121.426269","明志路二段324號對面人行道(鄰近明志書院)","Taishan Dist.","Mingzhi Elementary School","No.324, Sec. 2, Mingzhi Rd. (opposite)","0","1"
"1130","蘆洲三民公園","10","4","蘆洲區","20240523190923","25.094306","121.460134","三民路615號對面人行道(鄰近大台北都會公園)","Luzhou Dist.","Luchou Sanmin Park","No.615, Sanmin Rd. (opposite)","6","1"
"1131","臺北醫院","22","0","新莊區","20240523190923","25.043536","121.459772","思源路131號至137號前人行道","Xinzhuang Dist.","Taipei Hospital","No.131 to No.137, Siyuan Rd.","18","1"
"1132","重新重安街口","22","1","三重區","20240523190918","25.058443","121.489751","重新路三段/重安街","Sanchong Dist.","Chongxi & Chongan Intersection","Sec. 3, Chongxin Rd./Chong’an St.","19","1"
"1134","思賢國小","10","1","新莊區","20240523190926","25.046446","121.457716","福樂街66號對面","Xinzhuang Dist.","Si Xian Elementary School","No.66, Fule St. (opposite)","9","1"
"1136","豐年國小","10","0","新莊區","20240523190920","25.031278","121.443230","瓊泰路161號對面人行道","Xinzhuang Dist.","Feng-Nian Elementary School","No.161, Qiongtai Rd. (opposite)","10","1"
"1140","泰山國小","16","0","泰山區","20240523190917","25.062345","121.431475","泰林路2段257號旁人行道","Taishan Dist.","Taishan Elementary School","No.257, Sec. 2, Tailin Rd.","16","1"
"1143","廣福公園","12","2","板橋區","20240523190937","24.991643","121.462872","廣權路/廣和街","Banqiao Dist.","Guangfu Park","Guangquan Rd./Guanghe St.","6","1"
"1145","捷運頂埔站(2號出口)","36","0","土城區","20240523190919","24.959276","121.419008","新北市土城區中央路四段53號(前)","Tucheng Dist.","MRT Dingpu Sta.(Exit.2)","No.53, Sec. 4, Zhongyang Rd. (opposite)","36","1"
"1146","龍門龍濱路口","10","2","三重區","20240523190936","25.073475","121.500977","龍濱路192號對面","Sanchong Dist.","Longmen & Longbin Intersection","No.192, Longbin Rd. (opposite)","8","1"
"1148","金城忠義路口","10","2","土城區","20240523190927","24.969399","121.440808","金城路一段/忠義路","Tucheng Dist.","Jincheng & Zhongyi Intersection","Sec. 1, Jincheng Rd./Zhongyi Rd.","8","1"
"1149","華德公園","10","0","板橋區","20240523190937","24.991683","121.453320","四川路二段245巷60號對面","Banqiao Dist.","Huade Park","No.60, Ln. 245, Sec. 2, Sichuan Rd.","10","1"
"1152","捷運土城站(2號出口)","38","0","土城區","20240523190926","24.972631","121.443563","金城路1段/和平路","Tucheng Dist.","MRT Tucheng Sta.(Exit 2)","Sec. 1, Jincheng Rd./Heping Rd.","36","1"
"1154","員林社區公園","10","1","土城區","20240523190923","24.977883","121.443237","員林街12巷對面","Tucheng Dist.","Yuanlin Community Park","Ln. 12, Yuanlin St. (opposite)","9","1"
"1159","新樹公園","22","1","新莊區","20240523190941","25.003383","121.433154","新樹路627號對面","Xinzhuang Dist.","Xinshu Park","No.627, Xinshu Rd. (opposite)","21","1"
"1162","厚德公園","10","1","三重區","20240523190925","25.071988","121.491200","忠孝路一段37號","Sanchong Dist.","Houde Park","No.37, Sec. 1, Zhongxiao Rd.","9","1"
"1167","浮洲合宜住宅(合安一路)","10","0","板橋區","20240523190917","24.999329","121.446343","合安一路/大觀路二段153巷","Banqiao Dist.","Fujhou Appropriate House ( He-an 1st. Road )","1st Rd./Ln. 153, Sec. 2, Daguan Rd.","10","1"
"1168","建福公園","10","1","新莊區","20240523190923","25.027694","121.426685","建福路/建福路49巷","Xinzhuang Dist.","Jianfu Park","Jianfu Rd./Ln. 49, Jianfu Rd.","6","1"
"1169","水河里活動中心","38","0","蘆洲區","20240523190939","25.093949","121.473913","民族路408巷/復興路323巷","Luzhou Dist.","Shuei He Village Activity Center","Ln. 408, Minzu Rd./Ln. 323, Fuxing Rd.","38","1"
"1172","樹林火車站(後站)","28","1","樹林區","20240523190945","24.992553","121.424652","後站街6巷11號對面","Shulin Dist.","Shulin Railway Rear Station","No.11, Ln. 6, Houzhan St. (opposite)","25","1"
"1173","文林國小","16","3","樹林區","20240523190917","24.997856","121.426360","千歲街59號","Shulin Dist.","Wenlin Elementary School","No.59, Qiansui St.","13","1"
"1174","土城綜合體育場","10","0","土城區","20240523190916","24.983671","121.454211","裕民路195巷旁","Tucheng Dist.","Tucheng Sports Field","Ln. 195, Yumin Rd.","10","1"
"1176","光華公園","20","1","樹林區","20240523190935","25.005412","121.413157","保安街2段259號對面(鄰近樹林興仁花園夜市)","Shulin Dist.","Guanghua Park","No.259, Sec. 2, Bao’an St. (opposite)","18","1"
"1177","樹林大安活動中心","22","0","樹林區","20240523190927","24.986391","121.414770","備前街/復興路372巷口","Shulin Dist.","Shulin Da'an Activity Center","Beiqian St./Ln. 372, Fuxing Rd.","22","1"
"1178","三民中山一路口","14","1","蘆洲區","20240523190939","25.082229","121.476004","三民路8號前(鄰近紫禁城博物館)","Luzhou Dist.","Sanmin & Zhongshan 1st Rd. Intersection","No.8, Sanmin Rd.","12","1"
"1179","義學國小","14","0","泰山區","20240523190939","25.051762","121.431669","民生路33號對面人行道","Taishan Dist.","Yixue Elementary School","No.33, Minsheng Rd. (opposite)","13","1"
"1180","自然公園","22","0","三重區","20240523190935","25.089840","121.487987","如意街/集賢路口","Sanchong Dist.","Natural Park","Ruyi St./Jixian Rd.","22","1"
"1181","板林溪北路口","10","0","板橋區","20240523190935","24.990555","121.426350","板林路/溪北路","Banqiao Dist.","Banlin & Xibei Intersection","Banlin Rd./Xibei Rd.","8","1"
"1186","同興公園","16","0","泰山區","20240523190935","25.055188","121.432128","仁義路15號對面","Taishan Dist.","Tongxing Park","No.15, Renyi Rd. (opposite)","16","1"
"1188","溪洲公園停車場","10","1","板橋區","20240523190922","24.986723","121.426820","溪崑二街145號","Banqiao Dist.","Xizhou Park","No.145, Xikun 2nd St.","9","1"
"1189","崑崙公園","10","1","板橋區","20240523190957","24.993406","121.429636","大觀路三段212巷70號對面","Banqiao Dist.","Kunlun Park","No.70, Aly. 212, Sec. 3, Daguan Rd. (opposite)","7","1"
"1190","捷運海山站(3號出口)","40","2","土城區","20240523190930","24.986923","121.449335","海山路46號對面機車格位","Tucheng Dist.","MRT Haishan Sta.(Exit 3)","No.46, Haishan Rd. (opposite)","37","1"
"1191","興化公園","10","3","新莊區","20240523190924","25.065234","121.461115","五工二路/五工三路50巷","Xinzhuang Dist.","Xinhua Park","Wugong 2nd Rd./Ln. 50, Wugong 3rd Rd.","6","1"
"1193","西盛館","24","0","新莊區","20240523190943","25.011905","121.432713","新樹路499號前人行道(西盛館)","Xinzhuang Dist.","Xi Sheng Guan","No.499, Xinshu Rd.","24","1"
"1197","義仁市民活動中心","20","1","泰山區","20240523190936","25.050479","121.427667","明志路二段177號","Taishan Dist.","Yiren civil activity center","No.177, Sec. 2, Mingzhi Rd.","19","1"
"1198","鶯歌國中","24","1","鶯歌區","20240523190922","24.951734","121.342963","建國路420號對面人行道(鄰近新太源藝術工坊)","Yingge Dist.","Yingge Junior High School","No.420, Jianguo Rd.(opposite)","23","1"
"1199","捷運迴龍站(3號出口)","28","1","新莊區","20240523190917","25.022760","121.413053","中正路/中正路746巷","Xinzhuang Dist.","MRT Huilong Sta.(Exit 3)","Zhongzheng Rd./Ln. 746, Zhongzheng Rd.","22","1"
"1200","捷運先嗇宮站(2號出口)","26","1","三重區","20240523190934","25.046068","121.470987","重新路五段515號","Sanchong Dist.","MRT Xianse Temple Sta.(Exit.2)","No.515, Sec. 5, Chongxin Rd.","25","1"
"1201","鶯歌火車站(仁愛路)","40","7","鶯歌區","20240523190917","24.955591","121.354376","仁愛路55號對側人行道(鄰近鶯歌車站/宏德宮(孫臏廟))","Yingge Dist.","Yingge Railway Station(Ren’ai  Rd.)","No.55, Ren’ai Rd., Yingge Dist.(opposite)","30","1"
"1204","立泰里(中環路二段)","24","0","新莊區","20240523190942","25.045676","121.442133","新莊區中環路二段423號(對面橋下)(鄰近新莊文化藝術中心)","Xinzhuang Dist.","Litai Village(Zhonghuan Rd. Sec. 2)","No.423, Sec. 2, Zhonghuan Rd.(opposite)","23","1"
"1206","文化館前路口","10","4","鶯歌區","20240523190935","24.949549","121.352832","鶯歌區文化路407號(鄰近鶯歌陶瓷博物館)","Yingge Dist.","New Taipei City Yingge Ceramics  Museum","No.407, Wenhua Rd.","6","1"
"1207","浮洲合宜住宅(樂群路)","20","1","板橋區","20240523190929","24.9969909","121.4465092","板橋區合宜路/樂群路口","Banqiao Dist.","Fuzhou Apartment(Lequn Rd.)","Heyi Rd./Lequn Rd.","19","1"
"1208","尖山公園","22","14","鶯歌區","20240523190917","24.948220","121.345767","鶯歌區尖山路161號對面","Yingge Dist.","Jianshan Park","No.161, Jianshan Rd.(opposite)","8","1"
"1210","樹林區衛生所","30","0","樹林區","20240523190934","24.983768","121.415032","新北市樹林區中山路二段80-1號對面機車停車格","Shulin Dist.","Shulin District Public Health Center","No.80-1, Sec. 2, Zhongshan Rd.(opposite)","29","1"
"1211","溪墘公園","22","1","蘆洲區","20240523190918","25.079969","121.476205","信義路73巷2號對面公園人行道","Luzhou Dist.","Si Cian Park","No.2, Ln. 73, Xinyi Rd.(oppsite)","21","1"
"1212","育德國小","18","1","樹林區","20240523190923","24.970656","121.392602","育德街13號對面人行道","Shulin Dist.","Yude Elementary School","No.13, Yude St.(oppsite)","17","1"
"1213","彭福國小","34","2","樹林區","20240523190918","24.980335","121.423104","國凱街130號對面","Shulin Dist.","Pengfu Elementary School","No.130, Guokai St.(oppsite)","32","1"
"1215","億光電子(樹林高中)","28","0","樹林區","20240523190823","24.983567","121.423601","中華路 / 樹中二街口(學校側門對面人行道)","Shulin Dist.","Everlight Electronics Co.,Ltd (Shulin Senior High School)","Zhonghua Rd./Shuzhong 2nd St.(oppsite)","25","1"
"1216","捷運永寧站(2號出口)","10","0","土城區","20240523190923","24.965783","121.436227","承天路11號對面","Tucheng Dist.","MRT Yungning Sta.(EXIT 2)","No.11, Chengtian Rd.(oppsite)","10","1"
"1220","新北市立圖書館鶯歌分館 ","24","6","鶯歌區","20240523190934","24.957195","121.349704","中山路150號(圖書館內停車場)","Yingge Dist.","New Taipei City Library Yingge Branch","No.150, Zhongshan Rd.","17","1"
"1221","德音國小","30","2","五股區","20240523190930","25.071515","121.435670","明德路2號(德音國小成泰路路側人行道)(鄰近維格餅家鳳梨酥夢工場)","Wugu Dist.","De-Yin Elementary School","No.2, Mingde Rd.(oppsite)","26","1"
"1224","金城立體停車場","30","0","土城區","20240523190936","24.984102","121.458595","金城路2段266號","Tucheng Dist.","Jincheng Parking Lot","No.266, Sec. 2, Jincheng Rd.","28","1"
"1225","先嗇宮","24","2","三重區","20240523190927","25.051190","121.476007","五谷王北街77號(後方停車場旁人行道)(鄰近三重先嗇宮)","Sanchong Dist.","Xianse Temple","No.77, Wuguwang N. St.","22","1"
"1227","光興國小","18","0","三重區","20240523190929","25.060339","121.500103","光興街/文化南路口(西南側)(光興街路側)(鄰近新北市眷村文化園區（空軍三重一村）)","Sanchong Dist.","Guangxing Elementary School","Guangxing St./Wenhua S. Rd.","18","1"
"1230","新月橋","18","2","新莊區","20240523190944","25.032300","121.450011","瓊林路1號旁(碧江公園旁)(鄰近新月橋/新莊廟街)","Xinzhuang Dist.","Crescent Bridge","No.1, Qionglin Rd.","15","1"
"1234","鴨母港抽水站","30","2","蘆洲區","20240523190938","25.082935","121.456728","永安南路二段334號(對面人行道)","Luzhou Dist.","Yamugang Pumping Station","No.334, Sec. 2, Yong’an S. Rd.","28","1"
"1235","捷運淡水站","28","0","淡水區","20240523190934","25.168826","121.444183","公明街73巷6號前(淡水老街廣場)(鄰近淡水捷運站/淡水龍山寺/捷運淡水線)","Tamsui Dist.","MRT Tamsui Station","No.6, Ln. 73, Gongming St.","28","1"
"1239","龍門公園","10","3","三重區","20240523190922","25.074815","121.498484","公園街/仁福街 (龍門公園人行道上)","Sanchong Dist.","Longmen Park","Gongyuan St. / Renfu St.","7","1"
"1241","永安圖書館","20","0","蘆洲區","20240523190928","25.078599","121.462228","永安南路二段150號(對側人行道)","Luzhou Dist.","Yong-an Library","No.150, Sec. 2, Yong’an S. Rd.","18","1"
"1242","西盛廣場","10","0","新莊區","20240523190934","25.000894","121.431485","樹新路251號對面(西盛廣場人行道)","Xinzhuang Dist.","XiSheng Square","No.251, Shuxin Rd.(oppsite)","10","1"
"1243","三峽區公所(三峽老街)","14","9","三峽區","20240523190949","24.934187","121.369158","中山路17號(公所旁徒步區)(鄰近三峽清水祖師廟/三峽歷史文物館/三峽老街)","Sanxia Dist.","Sanxia District Office(Sanxia Old Street)","No.17, Zhongshan Rd.","4","1"
"1245","崑崙活力廣場","30","0","板橋區","20240523190940","24.993901","121.432880","大觀路三段133巷3號對面廣場","Banqiao Dist.","Kunlun Square","No.3, Ln. 133, Sec. 3, Daguan Rd.(oppsite)","29","1"
"1246","永盛公園","22","7","三重區","20240523190936","25.076133","121.484304","車路頭街139巷135號(對面人行道)","Sanchong Dist.","YongSheng Park","No.135, Ln. 139, Chelutou St.(oppsite)","15","1"
"1247","鷺江廣場","10","2","蘆洲區","20240523190939","25.085621","121.477694","信義路319巷22號(旁邊機車格前)","Luzhou Dist.","Lu Jiang square","No.22, Ln. 319, Xinyi Rd.(side)","8","1"
"1248","六張公園","10","2","三重區","20240523190924","25.069661","121.494048","安慶街149巷21號 (對面六張公園人行道)","Sanchong Dist.","Liuzhang Park","No.21, Ln. 149, Anqing St.(oppsite)","8","1"
"1250","國立臺北大學(三峽校區)","30","19","三峽區","20240523190919","24.945553","121.373260","學勤路大學路口(面校門右側人行道)(鄰近國立台北大學)","Sanxia Dist.","National Taipei University(Sanxia Campus)","Xueqin Rd. / Daxue Rd. intersection","9","1"
"1253","中正富國路口","10","0","新莊區","20240523190932","25.025940","121.417694","中正路879之16號門口(中國信託前的公車站旁)","Xinzhuang Dist.","Zhongzheng & Fuguo Intersection","No.879-16, Zhongzheng Rd.","10","1"
"1255","新北市立圖書館五股成功分館","26","5","五股區","20240523190940","25.094784","121.446741","西雲路165號圖書館旁空地(鄰近西雲禪寺)","Wugu Dist.","New Taipei City Library Wugu-Chenggong Branch","No.165, Xiyun Rd.","21","1"
"1258","南樹林火車站","22","0","樹林區","20240523190941","24.980236","121.408605","中山路二段東興路口(火車站右側人行道)","Shulin Dist.","Shulin South Station","Sec. 2, Zhongshan Rd. / Dongxing St. intersection","21","1"
"1259","新北市立鶯歌高級工商職業學校","28","0","鶯歌區","20240523190929","24.939095","121.334639","中正三路235~237號(對面人行道)(鄰近亞洛美精靈國度)","Yingge Dist.","New Taipei Municipal Yinggle Vocational High School","No.235-237, Zhongzheng 3rd Rd.(oppsite)","27","1"
"1260","行政院新莊聯合辦公大樓","10","0","新莊區","20240523190932","25.055969","121.444423","中平路/榮華路2段","Xinzhuang Dist.","Xinzhuang Joint Office Tower, Executive Yuan","Zhongping Rd./ Sec. 2, Ronghua Rd. intersection","10","0"
"1261","柑園五里聯合活動中心","32","9","樹林區","20240523190944","24.950576","121.386183","佳園路三段128號(活動中心左側人行道)","Shulin Dist.","5 Villages in Ganyuan Joint Activity Center","No.128, Sec. 3, Jiayuan Rd.","23","1"
"1265","永昌里兒一公園","22","10","鶯歌區","20240523190917","24.956661","121.339645","鶯桃路182巷96弄36-38號對側","Yingge Dist.","Yongchang Village Children Park (No.1)","No.36-38, Aly. 96, Ln. 182, Yingtao Rd.(oppsite)","9","1"
"1269","溪北公園","10","0","板橋區","20240523190942","24.990060","121.432281","篤行路二段131巷35號(對面人行道)","Banqiao Dist.","Xibei Park","No.35, Ln. 131, Sec. 2, Duxing Rd.","10","1"
"1270","頂新祖田市民活動中心","10","0","土城區","20240523190939","24.952710","121.411768","中央路四段285號","Tucheng Dist.","Dingxin-Zutian Civic Activity Center","No.285, Sec. 4, Zhongyang Rd.","10","1"
"1271","貴和市民活動中心","18","0","泰山區","20240523190928","25.034961","121.421928","明志路三段353號旁公園","Taishan Dist.","Guihe Civil Activity Center","No.353, Sec. 3, Mingzhi Rd.","18","1"
"1272","頂埔國小","26","0","土城區","20240523190918","24.956343","121.414421","中央路四段205號(頂埔國小校門口)(鄰近土城親子分館)","Tucheng Dist.","Dingpu Elementary School","No.205, Sec. 4, Zhongyang Rd.","26","1"
"1273","三峽區礁溪行政中心","16","8","三峽區","20240523190918","24.928438","121.375921","光明路71號(左側)","Sanxia Dist.","Chiaohsi Office of Sanxia District","No.71, Guangming Rd., Sanxia Dist.","7","1"
"1276","青山廣場","10","0","土城區","20240523190941","24.977837","121.459751","明德路一段240巷1號(雜貨店前人行道)","Tucheng Dist.","Qingshan Square","No.1, Ln. 240, Sec. 1, Mingde Rd.","10","1"
"1278","捷運新莊站(2號出口)","20","1","新莊區","20240523190916","25.036075","121.452792","新莊路214巷(捷運新莊站2號出口旁邊)","Xinzhuang Dist.","MRT Xinzhuang Sta. (Exit 2)","Ln. 214, Xinzhuang Rd.","19","1"
"1279","俊英俊保路口","24","3","樹林區","20240523190928","25.009150","121.425183","俊英街俊保路口(西北側人行道)","Shulin Dist.","Junying & Junbao Intersection","Junying St./Junbao Rd.(intersecion)","19","1"
"1280","五股國民運動中心","28","0","五股區","20240523190941","25.095553","121.448652","成泰路三段353號(對面公園內)","Wugu Dist.","Wugu Civil Sports Center","No. 353, Sec. 3, Chengtai Rd., Wugu Dist.","28","1"
"1281","學成大義路口","24","6","樹林區","20240523190933","24.945099","121.378671","學成路大義路口(西北側人行道)","Shulin Dist.","Xuecheng & Dayi Intersection","Xuecheng Rd./Dayi Rd.(intersecion)","20","1"
"1282","捷運頭前庄站(1號出口)","64","2","新莊區","20240523190929","25.039365","121.460856","中正路/思源路(東北側)(捷運頭前庄站1號出口旁廣場)","Xinzhuang Dist.","MRT Touqianzhuang Sta.(Exit.1)","Zhongzheng Rd./Siyuan Rd.(intersection)","61","1"
"1284","成德公園","30","0","五股區","20240523190921","25.105052","121.452963","成泰路三段成洲八路口東北側成德公園路側","Wugu Dist.","Chengde Park","Sec. 3, Chengtai Rd./Chengzhou 8th Rd.(intersecion)","29","1"
"1286","金城立德路口","20","2","土城區","20240523190941","24.986691","121.465481","金城路三段19-30號(路側人行道)","Tucheng Dist.","Jincheng & Lide Intersection","No.19-30, Sec. 3, Jincheng Rd.(Side)","17","1"
"1287","恩主公醫院","32","12","三峽區","20240523190943","24.938912","121.363553","復興路372號(對面公車亭後方人行道)","Sanxia Dist.","En Chu Kong Hospital","No.372, Fuxing Rd.(oppsite)","20","1"
"1290","三重永豐公園","14","5","三重區","20240523190934","25.074629","121.478162","永福街197巷6之1號","Sanchong Dist.","San chong Yongfeng Park","No.6-1, Ln. 197, Yongfu St.","9","1"
"1292","新莊體育館","22","0","新莊區","20240523190941","25.040766","121.452459","中華路一段136巷對面","Xinzhuang Dist.","Xinzhuang Gymnasium","Ln. 136, Sec. 1, Zhonghua Rd.(oppsite)","20","1"
"1294","三多國小","20","0","樹林區","20240523190934","25.016405","121.407135","三福街83-89號(對面人行道)","Shulin Dist.","Sanduo Elementary School","No.83-89, Sanfu St.(oppsite)","20","1"
"1295","永安兒童公園","28","2","蘆洲區","20240523190918","25.082273","121.482236","永安北路2段/永安北路2段35巷","Luzhou Dist.","Yongan Children's Park","Sec. 2, Yong’an N. Rd./ Ln. 35, Sec. 2, Yong’an N. Rd.(intersection)","26","1"
"1303","樹林國民運動中心","20","0","樹林區","20240523190932","25.004186","121.422847","樹林區中正路188-6號","Shulin Dist.","Shulin  Civil  Sports Center","No.188-6,Zhongzheng Rd.,Shulin Dist.","19","1"
"1304","捷運輔大站(4號出口)","10","2","新莊區","20240523190941","25.033025","121.436484","新莊區 中正路510之1號(鄰近輔仁大學)","Xinzhuang Dist.","MRT Fu Jen University Sta.(Exit.4)","No.510-1, Zhongzheng Rd., Xinzhuang Dist.","8","1"
"1305","民安東民全街口","26","0","新莊區","20240523190940","25.020774","121.429556","新莊區民安東路48號前人行道","Xinzhuang Dist.","Min’an E.& Minquan Intersection","No.48 Min’an E. Rd., Xinzhuang Dist.","25","1"
"1306","中興北街175巷口","10","5","三重區","20240523190937","25.055970","121.471327","三重區中興北街175巷10號對面(路側)","Sanchong Dist.","Zhongxing N. St. 175 Ln","No.10, Ln. 175,Zhongxing N. St., Sanchong Dist.","5","1"
"1308","五股工商立體停車場","22","1","五股區","20240523190918","25.082494","121.439555","五股區中興路四段19-1號(對面人行道)","Wugu Dist.","Wugu Gongshang Parking Towe","No.19-1, Sec. 4, Zhongxing Rd., Wugu Dist(oppsite)","21","1"
"1309","沛陂社區公園","22","1","土城區","20240523190941","24.963289","121.419672","土城區三民路23巷8弄(公園裡面)","Tucheng Dist.","Peipo Community Park","Aly. 8, Ln. 23, Sanmin Rd., Tucheng Dist","21","1"
"1312","龍鳳公園","10","0","新莊區","20240523190918","25.021447","121.416497","新莊區龍安路72號對面(公園人行道)","Xinzhuang Dist.","Longfeng Park","No.72, Long’an Rd., Xinzhuang Dist.(oppsite)","9","1"
"1313","伊吉邦社區","10","0","新莊區","20240523190938","25.030186","121.413402","新莊區新北大道7段312號(人行道)","Xinzhuang Dist.","Yijibang","No.312, Sec. 7, New Taipei Blvd., Xinzhuang Dist","10","1"
"1314","三多第1市民活動中心","22","0","樹林區","20240523190918","25.016361","121.404257","樹林區福興街17號(活動中心前機車格)","Shulin Dist.","First of Sanduo Civil Activity Center","No.17, Fuxing St., Shulin Dist","20","1"
"1315","新北高工","32","1","土城區","20240523190940","24.982770","121.449900","新北市土城區學府路一段241號","Tucheng Dist.","New Taipei Industrial Vocational High School","No.241, Sec. 1, Xuefu Rd., Tucheng Dist","30","1"
"1317","長風社區","10","1","土城區","20240523190937","24.978108","121.439369","土城區中華路二段91~95號(人行道)","Tucheng Dist.","Changfeng Community","No.91~95, Sec. 2, Zhonghua Rd., Tucheng Dist","5","1"
"1320","民生親子公園","14","1","樹林區","20240523190927","24.992983","121.428196","新北市樹林區保安街一段/保安街一段14巷","Shulin Dist.","Minsheng Parent-child Park","No.1, Ln. 14, Sec. 1, Bao’an St., Shulin Dist","12","1"
"1321","樹林工業區","20","1","樹林區","20240523190939","25.000868","121.416091","樹林區保安街二段6號(前面廣場)(鄰近樹林興仁花園夜市)","Shulin Dist.","Shulin industrial zone","No.6, Sec. 2, Bao’an St., Shulin Dist.(square)","19","1"
"1322","龍埔公園","18","4","三峽區","20240523190937","24.938911","121.373676","新北市三峽區國光街85號","Sanxia Dist.","Longpu Park","No.85, Guoguang St., Sanxia Dist","14","1"
"1323","尖山國中","24","6","鶯歌區","20240523190931","24.944300","121.342089","鶯歌區國中街1號(人行道)","Yingge Dist.","Municipal Jianshan Junior High School","No.1, Guozhong St., Yingge Dist(sidewalk)","13","1"
"1325","浮洲火車站","18","0","板橋區","20240523190919","25.004098","121.444447","板橋區僑中二街/大觀路一段38巷(自行車停放區內)","Banqiao Dist.","Fuzhou Train Station","No.90, Ln. 38, Sec. 1, Daguan Rd./Qiaozhong 2nd St., Banqiao Dist.","18","1"
"1326","捷運海山站(1號出口)","50","3","土城區","20240523190926","24.984695","121.448504","土城區海山路(捷運海山站1號出口人行道)","Tucheng Dist.","MRT Haishan","Haishan Rd., Tucheng Dist.(MRT Haishan 1)","47","1"
"1332","台北得意GO","16","0","五股區","20240523190937","25.074424","121.467852","五股區四維路116號(人行道)","Wugu Dist.","Taipei Deyi GO","No. 116, Siwei Rd., Wugu Dist.","14","1"
"1334","太陽公園","18","1","三重區","20240523190920","25.086448","121.485599","三重區三賢街203號(對面汽車格)(鄰近蘆洲兒童親子分館)","Sanchong Dist.","Taiyang Park","No.203, Sanxian St., Sanchong Dist","17","1"
"1335","三重五常公園","10","0","三重區","20240523190938","25.080648","121.496149","三重區五華街7巷(對面公園人行道)","Sanchong Dist.","Wuchang Park(Sanchong Dist)","Ln. 7, Wuhua St., Sanchong Dist","10","1"
"1336","三德公園","12","1","三重區","20240523190934","25.074974","121.500542","三重區仁和街205號(斜對面公園人行道)","Sanchong Dist.","Sante Park","No.205, Renhe St., Sanchong Dist","11","1"
"1337","力行大勇街口","10","0","三重區","20240523190944","25.071928","121.481508","三重區力行路/大勇街口(路側)","Sanchong Dist.","Lixing & Tayung Intersection","Sec. 1, Lixing Rd., Sanchong Dist.,/,Dayong St., Sanchong Dist.(oppsite)","10","1"
"1338","蘆洲延平派出所","10","2","蘆洲區","20240523190928","25.081620","121.461620","蘆洲區長安街102巷5弄12號(對面)","Luzhou Dist.","Luzhou Yanping Police Station","No.12, Aly. 5, Ln. 102, Chang’an St., Luzhou Dist.","8","1"
"1339","永安南路九芎街71巷口","20","0","蘆洲區","20240523190938","25.077564","121.466071","蘆洲區永安南路/九芎街71巷口(對面人行道)","Luzhou Dist.","Yong' an S. Rd. & Ln. 71, Jiuqiong St Intersection","No.1, Sec. 2, Yong’an S. Rd., Luzhou Dist/No.1, Ln. 71, Jiuqiong St.","19","1"
"1344","樹林國小","22","0","樹林區","20240523190916","24.989136","121.41791","樹林區啟智街/文化街口(啟智街129號)","Shulin Dist.","Shulin elementary school","Wenhua St./Qizhi St., Shulin Dist., New Taipei City","19","1"
"1345","永吉國小","30","13","鶯歌區","20240523190938","24.958747","121.333095","鶯歌區德昌二街39號(對面人行道)","Yingge Dist.","Yongchi elementary school","No.39, Dechang 2nd St., Yingge Dist.","17","1"
"1346","中園國小","16","8","三峽區","20240523190917","24.927551","121.366919","三峽區弘園街55號(對面人行道)","Sanxia Dist.","Zhongyuan elementary school","No.55, Hongyuan St., Sanxia Dist","8","1"
"1347","介壽國小","18","10","三峽區","20240523190945","24.930341","121.378835","三峽區介壽路一段/大同路口(人行道)","Sanxia Dist.","Jieshou elementary school","No.1, Sec. 1, Jieshou Rd., Sanxia Dist./ Datong Rd.","5","1"
"1348","安溪國中","26","15","三峽區","20240523190938","24.926790","121.371957","三峽區中正路一段/大同路(人行道路橋旁)","Sanxia Dist.","Ansi Junior High School","Zhongzheng Road Section / Datong Road (next to the sidewalk)","10","1"
"1349","龍埔國小","18","5","三峽區","20240523190922","24.941224","121.376763","三峽區大學路47號(對面人行道)","Sanxia Dist.","Longpu elementary school","No.47, Daxue Rd., Sanxia Dist.","13","1"
"1350","大安路與中山路二段口","28","0","樹林區","20240523190940","24.983043","121.411318","樹林區大安路622號(前人行道)","Shulin Dist.","Daan & Sec.2 Zhongshan Intersection","No. 622, Daan Rd., Shulin Dist.","26","1"
"1351","樹林區公所","28","0","樹林區","20240523190928","24.989760","121.424780","樹林區博愛街198-1~198-5號(對面人行道)","Shulin Dist.","Shulin District Office","No.198-1~198-5, Bo’ai St., Shulin Dist.","28","1"
"1352","蘆洲重陽大樓","14","0","蘆洲區","20240523190920","25.085055","121.481887","重陽二街22號(對面人行道)(鄰近蘆洲兒童親子分館)","Luzhou Dist.","Luzhou Chongyang Building","No.22, Chongyang 2nd St., Luzhou Dist.","14","1"
"1356","亞洲員安路口","22","2","土城區","20240523190930","24.972621","121.434796","亞洲路94號(對面人行道)(鄰近大黑松小倆口牛軋糖博物館)","Tucheng Dist.","Yazhou & Yuan'an Rd.","No. 94, Yazhou Rd., Tucheng Dist.","18","1"
"1359","味王街","24","4","樹林區","20240523190939","24.974674","121.404424","味王街3號(馬路側)","Shulin Dist.","St. Weiwang","No. 3, Weiwang Street, Shulin Dist.","20","1"
"1360","福基公園","10","0","新莊區","20240523190941","25.058100","121.460892","福美街128巷12號","Xinzhuang Dist.","Zhenyi Village Park","No.12, Ln. 128, Fumei St., Xinzhuang Dist.","10","1"
"1362","安溪國小","24","7","三峽區","20240523190928","24.930621","121.372344","中華路61號(對面路側)(鄰近李梅樹紀念館)","Sanxia Dist.","Anxi Elementary School","No.61, Zhonghua Rd., Sanxia Dist.","11","1"
"1368","昌隆國小","18","0","新莊區","20240523190933","25.052129","121.454891","昌平街/昌平街31巷(對面昌隆國小人行道)","Xinzhuang Dist.","Changlong Elementary School","Changping Street / Changping Street 31 Lane (opposite the Changlong Primary School sidewalk)","17","1"
"1369","捷運新莊副都心站","20","1","新莊區","20240523190928","25.059145","121.446614","新莊區新北大道四段/中信街口(捷運副都心站2號出口)","Xinzhuang Dist.","MRT Xinzhuang Fuduxin Sta.","Sec. 4, New Taipei Blvd./Zhongxin St., Xinzhuang Dist.","16","1"
"1373","捷運新北產業園區站","20","0","新莊區","20240523190922","25.062029","121.459184","新莊區五工路55號","Xinzhuang Dist.","MRT New Taipei Industrial Park Sta.","No.55, Wugong Rd., Xinzhuang Dist.","18","1"
"1374","捷運泰山貴和站","16","1","泰山區","20240523190936","25.033192","121.422215","泰山區新北大道6段/貴陽街(貴陽街12號對面捷運站)","Taishan Dist.","MRT Taishan Guihe Sta.","Sec. 6, New Taipei Blvd./No.12, Guiyang St., Taishan Dist.","3","1"
"1380","中正北路193巷(愛買三重店)","10","1","三重區","20240523190942","25.071362","121.475985","中正北路193巷45號(賣場停車場)","Sanchong Dist.","Ln. 193, Zhongzheng N. Rd(A.Mart Sanchong)","No.45, Ln. 193, Zhongzheng N. Rd., Sanchong Dist.","9","1"
"1381","翔譽雙子星","8","0","三重區","20240523190935","25.053638","121.492924","中正南路251號(右側人行道)","Sanchong Dist.","Xiang Yu Twin Towers","No.251, Zhongzheng S. Rd., Sanchong Dist.","8","1"
"1382","明志科技大學","36","2","泰山區","20240523190916","25.040434","121.422548","工專路84號對面人行道","Taishan Dist.","Ming Chi University Of Technology","No.84, Gongzhuan Rd., Taishan Dist.","34","1"
"1383","三民高中(民權路)","12","0","蘆洲區","20240523190944","25.088024","121.473928","民權路100號(對面人行道)","Luzhou Dist.","Sanmin Senior High School(Minquan Rd.)","No.100, Minquan Rd., Luzhou Dist.","12","1"
"1384","環河福德南路口","18","1","三重區","20240523190925","25.060285","121.502173","福德南路71號(對面人行道)","Sanchong Dist.","Huanhe S. & Fude S. Rd.","No.71, Fude S. Rd., Sanchong Dist.","17","1"
"1385","文林國小(潭興街)","22","2","樹林區","20240523190922","24.998601","121.424892","潭興街65號(對面汽車停車格)","Shulin Dist.","Wenlin Elementary School( Tanxing St.)","No. 65, Tan Xing Street, Shulin Dist.","10","1"
"1389","東陽市民活動中心","20","2","樹林區","20240523190916","24.982192","121.412517","鎮前街467號(活動中心路側)","Shulin Dist.","Dongyang Civil Activity Center","No.467, Zhenqian St., Shulin Dist","18","1"
"1404","立德青雲路口","44","0","土城區","20240523190932","24.988355","121.460675","立德路2號(對面)","Tucheng Dist.","Lide & Qingyun Intersection","No.2, Lide Rd., Tucheng Dist.","42","1"
"1408","蘆洲李宅古蹟","18","0","蘆洲區","20240523190932","25.084959","121.466551","中正路185巷68弄9號(對面人行道)(鄰近蘆洲李宅(李友邦將軍紀念館))","Luzhou Dist.","Luzhou Lee Family Historic Estate","No.9, Aly. 68, Ln. 185, Zhongzheng Rd., Luzhou Dist.","18","1"
"1410","新莊勞工中心","10","0","新莊區","20240523190934","25.020332","121.433736","新樹路222號","Xinzhuang Dist.","Xinzhuang Labors Center","No.222, Xinshu Rd., Xinzhuang Dist.","9","1"
"1415","福美公園","10","0","新莊區","20240523190929","25.055033","121.461081","福美街/福美街62巷口(西北側人行道)","Xinzhuang Dist.","Fumei Park","Fumei St./Ln. 62, Fumei St., Xinzhuang Dist.","10","1"
"1418","五股郵局","18","2","五股區","20240523190919","25.101774","121.451127","凌雲路一段80巷9號(對面人行道)","Wugu Dist.","Wu Gu Post Office","No.9, Ln. 80, Sec. 1, Lingyun Rd., Wugu Dist.","16","1"
"1422","學成公園","10","0","土城區","20240523190918","24.988246","121.451187","學成路/學成路76巷口","Tucheng Dist.","Xuecheng Park","Xuecheng Rd./Ln. 76, Xuecheng Rd., Tucheng Dist.","10","1"
"1423","鳳祥公園","22","6","鶯歌區","20240523190923","24.962819","121.330254","鶯桃路413巷65弄4號(對面)","Yingge Dist.","Fengxiang Park","No.4, Aly. 65, Ln. 413, Yingtao Rd., Yingge Dist.","16","1"
"1424","光明市場","12","3","三重區","20240523190932","25.057335","121.491809","光明路67-1號(對面)","Sanchong Dist.","Guangming Market","No.67-1, Guangming Rd., Sanchong Dist.","9","1"
"1427","土城國中","10","3","土城區","20240523190928","24.962443","121.430347","永寧路18號(對面)","Tucheng Dist.","Tucheng Junior High School","No.18, Yongning Rd., Tucheng Dist.","7","1"
"1430","中華中央路一段242巷口","10","2","土城區","20240523190917","24.985510","121.443450","中華路一段185號(前)","Tucheng Dist.","Zhonghua & Ln. 242, Sec. 1, Zhongyang Intersection","No.185, Sec. 1, Zhonghua Rd., Tucheng Dist.","8","1"
"1431","公五公園","20","4","五股區","20240523190939","25.086580","121.444520","芳州五路/芳州二路口(東北側)","Wugu Dist.","Wugu Gongwu Park","Fangzhou 5th Rd./Fangzhou 2nd Rd., Wugu Dist.","16","1"
"1433","樹林大安站","10","2","樹林區","20240523190916","24.997312","121.421725","大安路118號(外側)","Shulin Dist.","Shulin Da’an","No.118, Da’an Rd., Shulin Dist.","8","1"
"1435","民義公園","32","0","五股區","20240523190938","25.088350","121.434500","五福路五福路6巷口(五福橋旁公園)","Wugu Dist.","Minyi Park","Wufu Rd./Ln. 6, Wufu Rd., Wugu Dist.","31","1"
"1437","成州國小","12","0","五股區","20240523190940","25.099230","121.450630","成泰路三段493號(東側)","Wugu Dist.","Chengzhou Elementary School","No.493, Sec. 3, Chengtai Rd., Wugu Dist.","11","1"
"1438","中興北街42巷17弄","10","2","三重區","20240523190933","25.050060","121.468920","中興北街42巷17弄8號旁","Sanchong Dist.","Aly. 17, Ln. 42, Zhongxing N. St.","No.8, Aly. 17, Ln. 42, Zhongxing N. St., Sanchong Dist.","8","1"
"1441","三光國小(金滿意)","10","0","三重區","20240523190943","25.055960","121.496874","大同南路246-1號(對面人行道)","Sanchong Dist.","Sanguang Elementary School(JinManYi)","No.246-1, Datong S. Rd., Sanchong Dist.","9","1"
"1442","蘆洲中路公園","10","1","蘆洲區","20240523190938","25.082299","121.468143","光華路87巷7號(右側)","Luzhou Dist.","Luzhou Zhonglu Park","No.7, Ln. 87, Guanghua Rd., Luzhou Dist.","8","1"
"1449","明德高中","46","0","三峽區","20240523190936","24.907449","121.364848","中正路二段/中正路二段395巷口","Sanxia Dist.","MingDer Senior High School","Sec. 2, Zhongzheng Rd. / Ln. 395, Sec. 2, Zhongzheng Rd., Sanxia Dist.","43","1"
"1450","鳳鳴國小","22","11","鶯歌區","20240523190940","24.969198","121.334806","永和街120號(校門前)","Yingge Dist.","Fengming Elementary School","No.120, Yonghe St., Yingge Dist.","10","1"
"1452","藍天大樓","16","0","三重區","20240523190921","25.053098","121.470165","興德路129號(旁)","Sanchong Dist.","Lantian Building","No.129, Xingde Rd., Sanchong Dist.","16","1"
"1454","大智公園","12","0","三重區","20240523190936","25.063608","121.494449","大同北路56號(對面)","Sanchong Dist.","Dazhi Park","No.56, Datong N. Rd., Sanchong Dist.","13","1"
"1455","國際二國際一路口","30","20","鶯歌區","20240523190930","24.976171","121.334938","國際二路/國際一路口","Yingge Dist.","Guoji 2nd Guoji 1st Intersection","Guoji 2nd Rd./Guoji 1st Rd., Yingge Dist.","10","1"
"1456","三重高中","10","1","三重區","20240523190941","25.054777","121.491710","集美街217號(對面)","Sanchong Dist.","SanChong Senior High School","No.217, Jimei St., Sanchong Dist.","9","1"
"1457","昌平公園","12","1","新莊區","20240523190934","25.058664","121.458109","中央路/福壽街口","Xinzhuang Dist.","Changping Park","Zhongyang Rd./Fushou St., Xinzhuang Dist.","10","1"
"1458","新北市客家文化園區","38","13","三峽區","20240523190927","24.941729","121.359538","隆恩街239號(右側)","Sanxia Dist.","Hakka Museum New Taipei City Government","No.239, Long’en St., Sanxia Dist.","23","1"
"1463","新泰游泳池","20","0","新莊區","20240523190936","25.045414","121.442734","新泰路478號(對面)(鄰近新莊文化藝術中心)","Xinzhuang Dist.","Xintai Swimming Pool","No.478, Xintai Rd., Xinzhuang Dist.","20","1"
"1464","森林公園","18","6","樹林區","20240523190938","24.948177","121.379760","學勤路382號(對面)","Shulin Dist.","Forest Park","No.382, Xueqin Rd., Shulin Dist.(opposite)","14","1"
"1465","馥華公園","14","0","板橋區","20240523190935","25.006117","121.445449","僑中二街118號前","Banqiao Dist.","Fuhua Park","No.118, Qiaozhong 2nd St., Banqiao Dist.","12","1"
"1467","南雅育智路口","28","17","鶯歌區","20240523190936","24.953961","121.345824","南雅路491號(對面)","Yingge Dist.","Nanya & Yuzhi Rd. Intersection","No.491, Nanya Rd., Yingge Dist.(opposite)","5","1"
"1468","穀保家商","10","2","三重區","20240523190928","25.068097","121.471028","疏洪東路三段/中正北路560巷口(鄰近二重環狀自行車道)","Sanchong Dist.","Ku Pao Home Economics & Commercial High School","Sec. 4,Shuhong WRd., Sanchong Dist./Ln. 560, Zhongzheng N. Rd.","8","1"
"1470","學成大成路口","20","7","樹林區","20240523190937","24.946248","121.382719","學成路712號(旁)","Shulin Dist.","Xuecheng & Dacheng Intersection","No.712, Xuecheng Rd., Shulin Dist.","12","1"
"1475","廣福派出所","22","1","土城區","20240523190926","24.988019","121.456247","學府路一段86號前","Tucheng Dist.","Guangfu Police Substation","No.86, Sec. 1, Xuefu Rd., Tucheng Dist.","21","1"
"1477","大眾廟","12","1","新莊區","20240523190922","25.037380","121.457660","中正路82號(旁)","Xinzhuang Dist.","Dazhong Temple","No.82, Zhongzheng Rd.,Xinzhuang Dist.","10","1"
"1478","化成公園","22","0","新莊區","20240523190936","25.047860","121.461962","思源路166巷4號(前)","XinZhuang Dist.","Huacheng Park","NO.43.Lin.166 Siyuan Rd. XinZhuang Dist","22","1"
"1479","龍恩公園","30","6","三峽區","20240523190943","24.941359","121.370524","國際一街90號(對面)(鄰近國立台北大學)","Sanxia Dist.","Long En Park","No.90. Guoji 1st .Sanxia Dist.","24","1"
"1480","新北市工商展覽中心","28","1","五股區","20240523190944","25.064345","121.447585","五工六路35號(對面)","Wugu Dist.","New Taipei City Exhibition Hall","No.35, Wugong 6th Rd., Wugu Dist.","25","1"
"1481","金城裕民路口(中正國中)","10","2","土城區","20240523190916","24.982933","121.456229","金城路二段218號(對面)","Tucheng Dist.","Gincheng & Yumin Intersection(Zhing Zheng Junior High School)","No.218, Sec. 2, Jincheng Rd., Tucheng Dist.","8","1"
"1483","海洋公園","22","1","三峽區","20240523190936","24.947490","121.376895","大義路/學勤路口(西北側)","Sanxia Dist.","Ocean Park","Dayi Rd. / Xueqin Rd., Sanxia Dist.","21","1"
"1484","浮洲合宜住宅(合宜一路)","30","0","板橋區","20240523190920","24.996520","121.442760","大觀路二段265巷/合宜一路(東南側)","Banqiao Dist.","Fuzhou Appropriate House ( Heyi 1st. Road )","Aly. 265, Sec. 2, Daguan Rd./Heyi 1st Rd., Banqiao Dist.","30","1"
"1486","臺北大學(資訊中心)","26","18","三峽區","20240523190934","24.943170","121.369520","大學路151號(資訊中心旁)","Sanxia Dist.","NTPU(Computer Center)","No.151, Daxue Rd., Sanxia Dist.","8","1"
"1488","新莊田徑場","18","0","新莊區","20240523190926","25.043570","121.452440","復興路一段209號 (對面)","Xinzhuang Dist.","Xinzhuang Stadium","No.209, Sec. 1, Fuxing Rd., Xinzhuang Dist.(opposite)","18","1"
"1489","新泰國中","10","0","新莊區","20240523190939","25.042880","121.444260","新泰路359號(旁)","Xinzhuang Dist.","Xintai Junior High School","No.359, Xintai Rd., Xinzhuang Dist.","10","1"
"1491","山佳火車站","22","1","樹林區","20240523190944","24.972220","121.392640","中山路三段108號","Shulin Dist.","Shanjia Railway Station","No.108, Sec. 3, Zhongshan Rd., Shulin Dist.","20","1"
"1492","新北市勞工活動中心","18","4","五股區","20240523190934","25.061490","121.450980","五工六路9號(前廣場)","Wugu Dist.","New Taipei City Labor Activity Center","No.9, Wugong 6th Rd., Wugu Dist.","14","1"
"1497","中港大排願景館","10","0","新莊區","20240523190930","25.058940","121.451170","中央路301號(對面)","Xinzhuang Dist.","Zhonggang Vision Hall","No.301, Zhongyang Rd., Xinzhuang Dist.(opposite)","10","1"
"1498","頭前國小","24","2","新莊區","20240523190930","25.052480","121.465270","頭前路93號(對面)","Xinzhuang Dist.","Touqian Elementary School","No.93, Touqian Rd., Xinzhuang Dist.(opposite)","22","1"
"1505","員和公園","10","1","土城區","20240523190919","24.979040","121.442540","中央路二段66號(對面)","Tucheng Dist.","Yuanhe Park","No.66, Sec. 2, Zhongyang Rd., Tucheng Dist.(opposite)","9","1"
"1508","新莊國民運動中心","10","1","新莊區","20240523190939","25.039610","121.449620","公園路66號(對面)(鄰近新莊綜合運動場)","Xinzhuang Dist.","Xinzhuang Civil Sports Center","No.66, Gongyuan Rd., Xinzhuang Dist.(opposite)","9","1"
"1510","三鶯國民運動中心停車場","10","7","三峽區","20240523190917","24.936140","121.369410","文化路164號(旁)(鄰近三峽清水祖師廟/三峽歷史文物館/三峽老街)","Sanxia Dist.","Sanying Civil Sports Center","No.164, Wenhua Rd., Sanxia Dist.","3","1"
"1511","彩虹兒童公園","28","2","蘆洲區","20240523190941","25.088710","121.464600","光榮路120巷8弄21號(對面)","Luzhou Dist.","Caihong Children's Park","No.21, Aly. 8, Ln. 120, Guangrong Rd., Luzhou Dist.","26","1"
"1513","碧華公園(集勇街)","10","0","三重區","20240523190926","25.084150","121.485540","仁安街2號(對面)","Sanchong Dist.","Bihua Park(Jiyong Rd.)","No.2, Ren’an St., Sanchong Dist.(opposite)","10","1"
"1515","大觀路二段19巷","12","1","板橋區","20240523190917","25.002560","121.450790","大觀路二段19巷115號(旁)","Banqiao Dist.","Ln. 19, Sec. 2, Daguan Rd.","No.115, Ln. 19, Sec. 2, Daguan Rd., Banqiao Dist.","11","1"
"1516","成泰路一段(中油)","10","0","五股區","20240523190942","25.078430","121.435650","成泰路一段194號(對面)","Wugu Dist.","Sec. 1, Chengtai Rd. (CPC)","No.194, Sec. 1, Chengtai Rd., Wugu Dist.","10","1"
"1517","清和里(青雲路)","10","0","土城區","20240523190925","24.975120","121.458740","青雲路449號(對面)","Tucheng Dist.","Qinghe Village(Qingyun Rd.)","No.449, Qingyun Rd., Tucheng Dist.(opposite)","9","1"
"1608","陸光國宅","14","1","五股區","20240523190944","25.088810","121.430790","民義路1段/民義路1段183巷口","Wugu Dist.","Luguan Public Housing Complex","Sec. 1, Minyi Rd./Ln. 183, Sec. 1, Minyi Rd., Wugu Dist.","13","1"
"1610","中山新興街口","28","0","樹林區","20240523190936","24.974990","121.400230","中山路三段/新興街口(西北側人行道)","Shulin Dist.","Zhongshan & Xinxing Intersection","Section 3 of Zhongshan Road/Xingxing Street (Northwest Sidewalk)","27","1"
"1611","信義公園市民活動中心","10","0","板橋區","20240523190918","24.991700","121.457500","信義路150巷43號(前)","Banqiao Dist.","Xinyi Park Civic Activity Center","No.43, Ln. 150, Xinyi Rd., Tucheng Dist.","8","1"
"1612","文中小停車場","10","0","三重區","20240523190923","25.058990","121.482550","名源街54號(對面)","Sanchong Dist.","Wenzhongxiao Parking Lot","No.54, Mingyuan St., Sanchong Dist.(opposite)","10","1"
"1615","御史路1巷","14","1","五股區","20240523190939","25.090440","121.441920","御史路1巷5號(旁)","Wugu Dist.","Ln. 1, Yushi Rd.","No.5, Ln. 1, Yushi Rd., Wugu Dist.","12","1"
"1622","鶯歌國民運動中心","12","4","鶯歌區","20240523190931","24.951340","121.357750","館前路250號(前)","Yingge Dist.","Yingge Civil Sports Center","No.250, Guanqian Rd., Yingge Dist.","8","1"
"1627","土城仁愛社區公園","10","0","土城區","20240523190944","24.980390","121.460620","仁愛路17巷2號(對面)","Tucheng Dist.","Tucheng Renai Park","No. 2, Ln. 17, Ren’ai Rd., Tucheng Dist.(opposite)","8","1"
"1630","東海高中","20","6","三重區","20240523190916","25.064840","121.479420","忠孝路三段93巷6號(對面)","Sanchong Dist.","Tung Hai Senior High School","No. 6, Ln. 93, Sec. 3, Zhongxiao Rd., Sanchong Dist.(opposite)","14","1"
"1631","中山1號科技總部","26","5","土城區","20240523190943","24.960450","121.412120","中山路1號(前)","Tucheng Dist.","Zhongshan No. 1 Technology Headquarters","No. 1, Zhongshan Rd., Tucheng Dist.","20","1"
"1633","仁愛街70巷口","12","1","蘆洲區","20240523190944","25.093980","121.471260","仁愛街95號(對面)","Luzhou Dist.","Ln. 70, Ren’ai St.","No. 95, Ren’ai St., Luzhou Dist.(opposite)","11","1"
"1640","全球傳動科技公司","32","0","樹林區","20240523190923","25.008010","121.414810","三多路123號(前)","Shulin Dist.","TBI MOTION Technology Company","No. 123, Sanduo Rd., Shulin Dist.","31","1"
"1642","復興民生街口","18","4","三峽區","20240523190937","24.937010","121.373240","復興路45號(前)","Sanxia Dist.","Fuxing & Minsheng St. Intersection","No. 45, Fuxing Rd., Sanxia Dist.","9","1"
"1654","仁愛街112巷","18","0","三重區","20240523190919","25.074860","121.494880","仁愛街112巷7號(對面)","Sanchong Dist.","Ln. 112, Renhua St.","No. 7, Ln. 112, Ren’ai St., Sanchong Dist.","18","1"
"1657","中興橋(環河南路254巷口)","26","2","三重區","20240523190925","25.050520","121.491380","環河南路253號(對面中興橋下)","Sanchong Dist.","Zhongxing Bridge(Ln. 254, Huanhe S. Rd.)","No. 253, Huanhe S. Rd., Sanchong Dist.","24","1"
"1663","中信國小","30","1","新莊區","20240523190925","25.055720","121.449570","榮華路二段/中富街口(西北側人行道)","Xinzhuang Dist.","Zhongxin Elementary School","Sec. 2, Ronghua Rd./Zhongfu St., Xinzhuang Dist.","27","1"
"1665","三抱竹","10","0","板橋區","20240523190937","24.998640","121.441390","大觀路二段162號(對面橋下機車格)","Banqiao Dist.","Sanbaozhu","No. 162, Sec. 2, Daguan Rd., Banqiao Dist.(opposite)","6","1"
"1667","慈愛公園","10","1","三重區","20240523190940","25.081190","121.484610","仁愛街584號旁公園人行道","Sanchong Dist.","Ci'ai Park","No. 584, Ren’ai St., Sanchong Dist.","9","1"
"1669","頂埔市場","10","2","土城區","20240523190944","24.958190","121.415080","中州路28巷30號(前廣場)","Tucheng Dist.","Dingpu Market","No. 30, Ln. 28, Zhongzhou Rd., Tucheng Dist.","8","1"
"1670","樹林藝文綜合行政大樓","36","0","樹林區","20240523190926","24.995460","121.429100","保順街139號(對面)","Shulin Dist.","Shulin Art & Administrative Center","No. 139, Baoshun St., Shulin Dist.(opposite)","34","1"
"1672","台北花園廣場社區","22","1","泰山區","20240523190942","25.064140","121.426000","泰林路二段454號(旁)","Taishan Dist.","Taipei Garden Community","No. 545, Sec. 2, Tailin Rd., Taishan Dist.","21","1"
"1676","國中二甲路口","14","2","鶯歌區","20240523190935","24.939500","121.338670","國中街175號(前)","Yingge Dist.","Guozhong & Erjia Intersection","No. 175, Guozhong St., Yingge Dist.","10","1"
"1679","芳洲八路","18","1","五股區","20240523190930","25.088800","121.446370","芳洲八路152號(對面)","Wugu Dist.","Fangzhou 8th Road","No. 152, Fangzhou 8th Rd., Wugu Dist.(opposite)","17","1"
"1680","後竹圍市民活動中心","10","0","三重區","20240523190944","25.072460","121.485760","後竹圍街175巷18號(對面)","Sanchong Dist.","Houzhuwei Civil Activity Center","No. 152, Fangzhou 8th Rd., Wugu Dist.(opposite)","9","0"
"1682","中央路一段292巷口","10","0","土城區","20240523190944","24.982650","121.443680","中央路一段274號(對面)","Tucheng Dist.","Ln. 292, Sec. 1, Zhongyang Rd. Intersection","No. 274, Sec. 1, Zhongyang Rd., Tucheng Dist.(opposite)","10","1"
"1688","鳳福公園","32","10","鶯歌區","20240523190917","24.975720","121.329380","鳳吉一街186號(對面)","Yingge Dist.","Fengfu Park","No. 186, Fengji 1st St., Yingge Dist.(opposite)","19","1"
"1691","遠東動力企業總部","10","0","新莊區","20240523190927","25.031130","121.429990","中正路651號(前)","Xinzhuang Dist.","Far East Power Corporate Headquarters","No. 30, Guangfu Rd., Zhonghe Dist.(opposite)","10","1"
"1692","清水社區公園","28","0","土城區","20240523190943","24.984000","121.462890","延吉街395號(對面)","Tucheng Dist.","Qing Shui Community Park","No. 395, Yanji St., Tucheng Dist.(opposite)","26","1"
"1694","斬龍山遺址文化公園","10","0","土城區","20240523190925","24.976570","121.447750","龍山一街/金城路二段(北側公園)","Tucheng Dist.","Zhanlongshan Archaeological Park","Longshan 1st St./Sec. 2, Jincheng Rd., Tucheng Dist.","7","1"
"1696","三重商工(後竹圍街)","24","0","三重區","20240523190926","25.070310","121.479760","中正北路165巷53號(後竹圍街路側停車格)","Sanchong Dist.","San-Chung Commercial and Industrial Vocational High School(Houzhuwei St.)","No. 53, Ln. 165, Zhongzheng N. Rd., Sanchong Dist.(opposite)","24","1"
"1698","浮洲合宜住宅(合宜合安一路口)","10","1","板橋區","20240523190932","24.998490","121.448630","合宜路/合安一路(東南側機車停車場)","Banqiao Dist.","Fuzhou Apartment(Heyi & He’an 1st Intersection)","Heyi Rd./He’an 1st Rd., Banqiao Dist.","9","1"
"1699","中正福海街口","10","0","新莊區","20240523190920","25.034590","121.444890","中正路413號(對面)","Xinzhuang Dist.","Zhongzheng & Fuhai Intersection","No. 413, Zhongzheng Rd., Xinzhuang Dist.(opposite)","9","1"
"1707","俊興三龍街口","20","0","樹林區","20240523190943","25.017040","121.418210","俊興街280號(對面)","Shulin Dist.","Junxing & Sanlong Intersection","No. 292, Siyuan Rd., Xinzhuang Dist.(opposite)","20","1"
"1711","金城裕民路口(金城舞社區)","8","0","土城區","20240523190916","24.981560","121.454660","金城路二段200號(旁)","Tucheng Dist.","Gincheng & Yumin Intersection","No. 200, Sec. 2, Jincheng Rd., Tucheng Dist.","8","1"
"1723","林建生紀念圖書館","10","3","蘆洲區","20240523190931","25.088434","121.469879","三民路178號(前)","Luzhou Dist.","Lin Jian Sheng Memorial Library","No. 178, Sanmin Rd. (front)","7","1"
"1725","三峽國中","20","2","三峽區","20240523190930","24.938882","121.369399","復興路238號(前人行道)","Sanxia Dist.","Sanxia Junior High School","No. 238, Fuxing Rd. (front)","17","1"
"1726","宏匯廣場","10","0","新莊區","20240523190915","25.059319","121.449083","中央路558號(旁)","Xinzhuang Dist.","Honhui Plaza","No.558, Zhongyang Rd. (Side)","9","1"
"1728","疏洪東竹圍仔街口","16","2","三重區","20240523190924","25.048614","121.486398","疏洪東路/竹圍仔街口(東北側人行道)","Sanchong Dist.","Shuhong E. & Zhuweizai Intersection","Shuhong East Road/Zhuweizi Street Intersection (Northeast Side Walkway)","14","1"
"1732","新泰路255巷口","20","0","新莊區","20240523190939","25.039314","121.442696","中環路二段220號旁人行道","Xinzhuang Dist.","Ln. 255, Xintai Rd.","No. 220, Zhonghuan Rd. (Side)","20","1"
"1734","中華城林路口","32","1","土城區","20240523190916","24.974993","121.438631","中華路二段175號(前)","Tucheng Dist.","Zhonghua & Chenglin Intersection","No. 175, Sec. 2, Zhonghua Rd. (front)","29","1"
"1736","中山八德街口","18","0","樹林區","20240523190937","24.985156","121.417765","中山路二段10號對面人行道","Shulin Dist.","Zhongshan & Bade Intersection","No.10, Zhongshan Rd. (Opposite)","17","1"
"1739","凌雲路一段158巷口","24","1","五股區","20240523190933","25.103520","121.448100","凌雲路一段158巷22號(對面)","Wugu Dist.","Ln. 158, Sec. 1, Lingyun Rd.","No. 22, Ln. 158, Sec. 1, Lingyun Rd. (Opposite)","22","1"
"1740","中央慶利街口(風華綠中央社區)","10","0","土城區","20240523190916","24.973380","121.440520","中央路二段288號(前)","Tucheng Dist.","Zhongyang & Qingli Intersection","No. 288, Sec. 2, Zhongyang Rd.","10","1"
"1742","瓊林公園","22","2","新莊區","20240523190943","25.026290","121.442450","中環路一段16號(對面陸橋下)","Xinzhuang Dist.","Qionglin Park","No. 16, Sec. 1, Zhonghuan Rd.","19","1"
"1743","宏匯思源廣場","32","3","新莊區","20240523190936","25.057480","121.459050","富貴路51號(對面)","Xinzhuang Dist.","HONHUI SI YUAN SQUARE","No. 51, Fugui Rd.(Opposite)","28","1"
"1749","三峽國光青年社會住宅","36","25","三峽區","20240523190932","24.937430","121.376860","三樹路2號(對面)","Sanxia Dist.","Sanxia Guoguang Youth Rental House","No. 2, Sanshu Rd. (Opposite)","10","1"
"1753","四維國凱街口(立天下社區)","40","1","樹林區","20240523190916","24.979320","121.422410","四維路121號(旁)","Shulin Dist.","Siwei & Guokai Intersection","No. 121, Siwei Rd.","38","1"
"1754","頂崁公園","18","1","三重區","20240523190922","25.054930","121.475600","頂文一街頂文二街口(東南側公園人行道)","Sanchong Dist.","Dingkan Park","Dingwen 1st & Dingwen 2nd St. Intersection","15","1"
"1763","捷運三重站(1號出口)","14","4","三重區","20240523190923","25.054640","121.483220","捷運路36號(旁)","Sanchong Dist.","MRT Sanchong Station (Exit.1)","No. 36, Jieyun Rd. (Side)","11","1"
"1764","捷運徐匯中學站(1號出口)","12","1","蘆洲區","20240523190928","25.080468","121.479852","中山一路3號(捷運徐匯中學站1號出口旁)","Luzhou Dist.","MRT St.Ignatius High School Sta. (Exit 1)","No.3, Zhongshan 1st Rd.","10","1"
"1766","捷運三民高中站(2號出口)","22","11","蘆洲區","20240523190925","25.085840","121.473740","復興路58號旁","Luzhou Dist.","Sanmin Senior High School Sta. (Exit 2)","No.58, Fuxing Rd.","9","1"
